     3.04           OBSERVATION DATA    M: Mixed            RINEX VERSION / TYPE
gnss_comm obs2rinex                     20250413 065335 UTC PGM / RUN BY / DATE 
                                                            MARKER NAME         
                                                            MARKER NUMBER       
                                                            MARKER TYPE         
                                                            OBSERVER / AGENCY   
                                                            REC # / TYPE / VERS 
                                                            ANT # / TYPE        
                                                            APPROX POSITION XYZ 
                                                            ANTENNA: DELTA H/E/N
G    8 C1C L1C D1C S1C C2S L2S D2S S2S                      SYS / # / OBS TYPES 
R    8 C1C L1C D1C S1C C2C L2C D2C S2C                      SYS / # / OBS TYPES 
E    8 C1C L1C D1C S1C C7Q L7Q D7Q S7Q                      SYS / # / OBS TYPES 
C    8 C2I L2I D2I S2I C7I L7I D7I S7I                      SYS / # / OBS TYPES 
  2025     4    11     9    27    5.4990000     GPS         TIME OF FIRST OBS   
  2025     4    11     9    29   43.9990000     GPS         TIME OF LAST OBS    
G                                                           SYS / PHASE SHIFT   
R                                                           SYS / PHASE SHIFT   
E                                                           SYS / PHASE SHIFT   
C                                                           SYS / PHASE SHIFT   
  0                                                         GLONASS SLOT / FRQ #
 C1C    0.000 C1P    0.000 C2C    0.000 C2P    0.000        GLONASS COD/PHS/BIS 
                                                            END OF HEADER       
> 2025  4 11  9 27  5.4990000  0 22                     
G05  21475809.237   112856140.929        1929.484          41.000    21475798.549    87939809.550        1503.495          36.000  
G06  21546436.568   113227288.533        -944.579          42.000    21546427.663    88229016.062        -736.087          37.000  
G07  25174747.324   132294211.763        1369.008          28.000                                                                  
G09  23284749.355   122362176.097       -2651.791          38.000    23284740.943    95347121.934       -2066.656          37.000  
G11  20636142.309   108443661.911         517.303          44.000    20636129.320    84501501.184         403.247          41.000  
G13  22623575.718   118887706.658        3984.736          42.000                                                                  
G17  24877413.309           0.000       -3259.705          23.000                                                                  
G19  22347656.498   117437709.243       -3347.598          38.000                                                                  
G20  20326643.857   106817232.773         153.998          45.000                                                                  
G25  24017934.975   126215112.178        -730.192          33.000    24017935.389    98349435.214        -569.254          32.000  
G29  24607578.967   129313711.877        3772.711          38.000    24607581.687   100763876.259        2939.505          27.000  
G30  24772348.005   130179679.042        2157.807          40.000    24772350.793   101438638.700        1681.433          35.000  
C07  35925451.017   187073242.923        -697.792          42.000    35925430.589   144656816.083        -539.576          40.000  
C08  36407033.488   189580979.198         -70.126          40.000    36407012.427   146595951.990         -53.940          42.000  
C10  35974869.925   187330578.485        -389.122          42.000    35974852.095   144855812.975        -300.938          40.000  
C13  37022748.424   192787169.782          64.241          41.000    37022736.842   149075215.590          49.667          39.000  
C19  24919996.780   129764961.928        3177.707          38.000                                                                  
C20  21695235.036   112972786.716        1280.429          49.000                                                                  
C27  24706040.854   128650817.386       -2418.372          42.000                                                                  
C29  22253067.305   115877562.773        2283.557          46.000                                                                  
C30  21421675.700   111548284.020        -545.360          47.000                                                                  
C32  22735153.819   118387905.596       -1852.713          46.000                                                                  
> 2025  4 11  9 27  5.9990000  0 22                     
G05  21475625.658   112855175.929        1930.074          42.000    21475614.897    87939057.596        1503.594          36.000  
G06  21546526.453   113227760.630        -944.328          42.000    21546517.520    88229383.929        -735.906          37.000  
G07  25174616.988   132293527.117        1369.795          27.000                                                                  
G09  23285001.610   122363501.665       -2651.086          38.000    23284993.188    95348154.830       -2065.710          37.000  
G11  20636093.058   108443402.988         518.011          44.000    20636080.111    84501299.427         403.815          41.000  
G13  22623196.530   118885713.934        3985.386          42.000                                                                  
G17  24877723.472           0.000       -3261.313          23.000                                                                  
G19  22347974.938   117439382.676       -3346.869          38.000                                                                  
G20  20326629.063   106817155.585         154.436          45.000                                                                  
G25  24018004.396   126215476.969        -728.760          33.000    24018004.907    98349719.502        -568.698          32.000  
G29  24607220.011   129311825.285        3773.032          38.000    24607224.001   100762406.140        2940.198          27.000  
G30  24772142.636   130178599.807        2158.446          41.000    24772145.420   101437797.740        1682.199          35.000  
C07  35925517.994   187073591.513        -697.035          42.000    35925497.521   144657085.641        -539.110          40.000  
C08  36407040.167   189581013.792         -69.088          40.000    36407019.039   146595978.756         -53.382          41.000  
C10  35974907.213   187330772.793        -388.510          42.000    35974889.345   144855963.233        -300.440          40.000  
C13  37022742.190   192787137.347          64.761          41.000    37022730.620   149075190.545          49.862          39.000  
C19  24919691.580   129763372.736        3178.559          38.000                                                                  
C20  21695112.021   112972146.288        1280.745          49.000                                                                  
C27  24706273.062   128652026.374       -2417.949          42.000                                                                  
C29  22252848.030   115876420.800        2283.946          46.000                                                                  
C30  21421728.089   111548556.480        -544.903          47.000                                                                  
C32  22735331.723   118388831.738       -1852.218          46.000                                                                  
> 2025  4 11  9 27  6.4990000  0 22                     
G05  21475442.029   112854210.863        1930.072          42.000    21475431.248    87938305.588        1504.174          36.000  
G06  21546616.310   113228232.635        -944.326          42.000    21546607.367    88229751.715        -735.519          37.000  
G07  25174486.736   132292842.560        1368.344          27.000                                                                  
G09  23285253.776   122364827.173       -2651.017          38.000    23285245.434    95349187.684       -2065.770          37.000  
G11  20636043.744   108443143.995         517.944          44.000    20636030.808    84501097.613         403.857          41.000  
G13  22622817.300   118883721.102        3985.578          42.000                                                                  
G17  24878034.401           0.000       -3258.620          23.000                                                                  
G19  22348293.340   117441056.069       -3347.063          38.000                                                                  
G20  20326614.345   106817078.320         154.333          45.000                                                                  
G25  24018074.054   126215841.803        -729.928          34.000    24018074.415    98350003.721        -568.372          32.000  
G29  24606861.046   129309938.572        3773.390          38.000    24606866.000   100760935.990        2940.057          27.000  
G30  24771937.120   130177520.438        2158.518          41.000    24771940.003   101436956.676        1682.445          35.000  
C07  35925584.915   187073940.003        -697.057          42.000    35925564.463   144657355.109        -539.073          40.000  
C08  36407046.766   189581048.292         -69.118          40.000    36407025.619   146596005.435         -53.207          41.000  
C10  35974944.601   187330967.020        -388.595          42.000    35974926.735   144856113.421        -300.654          40.000  
C13  37022736.013   192787104.791          65.167          41.000    37022724.330   149075165.339          50.613          39.000  
C19  24919386.445   129761783.465        3178.502          38.000                                                                  
C20  21694989.069   112971505.838        1280.772          49.000                                                                  
C27  24706505.199   128653235.253       -2417.869          42.000                                                                  
C29  22252628.765   115875278.734        2283.945          46.000                                                                  
C30  21421780.434   111548828.912        -544.944          47.000                                                                  
C32  22735509.588   118389757.792       -1852.012          46.000                                                                  
> 2025  4 11  9 27  6.9990000  0 22                     
G05  21475258.440   112853245.945        1929.766          42.000    21475247.619    87937553.726        1503.510          36.000  
G06  21546706.283   113228704.741        -944.225          42.000    21546697.243    88230119.609        -735.994          37.000  
G07  25174357.494           0.000        1370.193          26.000                                                                  
G09  23285506.033   122366152.838       -2651.126          38.000    23285497.718    95350220.681       -2066.058          37.000  
G11  20635994.406   108442885.107         517.682          44.000    20635981.493    84500895.902         403.339          41.000  
G13  22622438.107   118881728.359        3985.445          42.000                                                                  
G17  24878343.940           0.000       -3259.156          24.000                                                                  
G19  22348611.850   117442729.580       -3347.358          37.000                                                                  
G20  20326599.628   106817001.160         154.217          45.000                                                                  
G25  24018143.637   126216206.776        -730.133          33.000    24018143.912    98350288.108        -568.560          32.000  
G29  24606502.108   129308051.975        3773.064          38.000    24606507.855   100759465.920        2940.058          28.000  
G30  24771731.804   130176441.111        2158.353          41.000    24771734.586   101436115.707        1681.734          35.000  
C07  35925651.812   187074288.585        -697.327          42.000    35925631.514   144657624.644        -539.067          40.000  
C08  36407053.367   189581082.883         -69.668          40.000    36407032.300   146596032.181         -53.762          42.000  
C10  35974981.919   187331161.331        -388.989          42.000    35974964.066   144856263.661        -300.425          41.000  
C13  37022729.800   192787072.312          64.907          41.000    37022717.994   149075140.239          50.220          39.000  
C19  24919081.187   129760194.335        3178.214          38.000                                                                  
C20  21694866.154   112970865.565        1280.423          49.000                                                                  
C27  24706737.369   128654444.267       -2418.118          42.000                                                                  
C29  22252409.396   115874136.792        2283.909          46.000                                                                  
C30  21421832.823   111549101.507        -545.289          47.000                                                                  
C32  22735687.467   118390684.004       -1852.479          47.000                                                                  
> 2025  4 11  9 27  7.4990000  0 22                     
G05  21475074.812   112852281.110        1929.515          42.000    21475064.061    87936801.881        1504.085          36.000  
G06  21546796.196   113229176.935        -944.415          42.000    21546787.177    88230487.564        -736.328          37.000  
G07  25174229.211           0.000        1370.071          26.000                                                                  
G09  23285758.271   122367478.608       -2651.428          38.000    23285749.983    95351253.757       -2066.224          37.000  
G11  20635945.143   108442626.310         517.407          44.000    20635932.194    84500694.229         403.552          41.000  
G13  22622058.927   118879735.693        3985.136          43.000                                                                  
G17  24878652.829           0.000       -3259.212          24.000                                                                  
G19  22348930.291   117444403.139       -3346.960          37.000                                                                  
G20  20326584.966   106816924.103         154.071          45.000                                                                  
G25  24018212.972   126216571.875        -730.452          33.000    24018213.385    98350572.586        -568.069          32.000  
G29  24606143.125   129306165.414        3773.089          38.000    24606149.620   100757995.838        2940.367          28.000  
G30  24771526.370   130175361.807        2158.419          41.000    24771529.201   101435274.710        1682.002          35.000  
C07  35925718.738   187074637.207        -697.290          42.000    35925698.543   144657894.214        -538.997          40.000  
C08  36407060.018   189581117.438         -69.107          40.000    36407038.912   146596058.936         -53.749          42.000  
C10  35975019.295   187331355.719        -388.977          42.000    35975001.449   144856413.968        -300.714          41.000  
C13  37022723.567   192787039.860          65.015          41.000    37022711.777   149075115.139          50.249          39.000  
C19  24918776.062   129758605.251        3178.090          38.000                                                                  
C20  21694743.290   112970225.437        1280.091          49.000                                                                  
C27  24706969.590   128655653.344       -2418.292          41.000                                                                  
C29  22252190.136   115872994.934        2283.748          46.000                                                                  
C30  21421885.306   111549374.233        -545.661          47.000                                                                  
C32  22735865.407   118391610.295       -1852.545          47.000                                                                  
> 2025  4 11  9 27  7.9990000  0 22                     
G05  21474891.259   112851316.328        1929.111          41.000    21474880.420    87936050.119        1503.227          36.000  
G06  21546886.174   113229649.164        -944.879          42.000    21546877.004    88230855.503        -736.222          37.000  
G07  25174097.552           0.000        1368.130          26.000                                                                  
G09  23286010.447   122368804.451       -2652.208          38.000    23286002.297    95352286.851       -2066.172          37.000  
G11  20635895.807   108442367.510         517.297          44.000    20635882.920    84500492.565         402.991          41.000  
G13  22621679.734   118877743.003        3985.052          43.000                                                                  
G17  24878962.564           0.000       -3259.962          25.000                                                                  
G19  22349248.801   117446076.762       -3347.798          37.000                                                                  
G20  20326570.219   106816847.057         153.695          45.000                                                                  
G25  24018282.565   126216937.060        -730.802          33.000    24018282.969    98350857.152        -569.512          32.000  
G29  24605784.147   129304278.857        3772.595          38.000    24605792.754   100756525.852        2939.655          28.000  
G30  24771320.955   130174282.485        2158.510          40.000    24771323.784   101434433.700        1681.586          35.000  
C07  35925785.704   187074985.817        -697.355          42.000    35925765.431   144658163.788        -539.283          40.000  
C08  36407066.606   189581151.977         -69.258          40.000    36407045.536   146596085.635         -53.904          42.000  
C10  35975056.607   187331550.086        -389.144          42.000    35975038.690   144856564.267        -300.802          41.000  
C13  37022717.353   192787007.361          64.738          41.000    37022705.602   149075090.028          50.007          39.000  
C19  24918470.906   129757016.206        3177.698          38.000                                                                  
C20  21694620.346   112969585.371        1279.780          49.000                                                                  
C27  24707201.712   128656862.441       -2418.463          41.000                                                                  
C29  22251970.839   115871853.095        2283.324          46.000                                                                  
C30  21421937.619   111549646.998        -545.890          47.000                                                                  
C32  22736043.367   118392536.625       -1852.951          47.000                                                                  
> 2025  4 11  9 27  8.4990000  0 22                     
G05  21474707.726   112850351.697        1928.817          41.000    21474696.892    87935298.495        1502.605          36.000  
G06  21546976.062   113230121.511        -944.885          43.000    21546966.913    88231223.572        -736.285          37.000  
G07  25173967.438           0.000        1366.324          26.000                                                                  
G09  23286262.754   122370130.446       -2652.362          38.000    23286254.585    95353320.087       -2066.484          37.000  
G11  20635846.635   108442108.881         516.907          44.000    20635833.648    84500291.035         402.710          41.000  
G13  22621300.640   118875750.419        3984.870          41.000                                                                  
G17  24879273.550           0.000       -3260.249          25.000                                                                  
G19  22349567.399   117447750.459       -3347.560          34.000                                                                  
G20  20326555.652   106816770.172         153.515          45.000                                                                  
G25  24018352.190   126217302.426        -730.444          33.000    24018352.544    98351141.878        -569.470          31.000  
G29  24605425.082   129302392.409        3772.573          39.000    24605435.007   100755055.838        2939.805          28.000  
G30  24771115.566   130173203.242        2158.429          41.000    24771118.400   101433592.721        1681.880          35.000  
C07  35925852.686   187075334.556        -697.506          42.000    35925832.337   144658433.470        -539.785          40.000  
C08  36407073.330   189581186.621         -69.447          40.000    36407052.240   146596112.411         -53.752          42.000  
C10  35975094.000   187331744.594        -389.349          42.000    35975076.007   144856714.681        -301.114          41.000  
C13  37022711.140   192786974.993          64.334          41.000    37022699.434   149075064.972          50.040          39.000  
C19  24918165.783   129755427.283        3177.971          38.000                                                                  
C20  21694497.499   112968945.522        1279.398          49.000                                                                  
C27  24707433.881   128658071.696       -2419.222          42.000                                                                  
C29  22251751.600   115870711.413        2283.189          46.000                                                                  
C30  21421990.180   111549919.986        -546.338          47.000                                                                  
C32  22736221.256   118393463.135       -1853.396          47.000                                                                  
> 2025  4 11  9 27  8.9990000  0 22                     
G05  21474524.277   112849387.378        1928.184          42.000    21474513.379    87934547.040        1502.921          36.000  
G06  21547066.063   113230594.150        -945.572          42.000    21547056.861    88231591.865        -736.833          37.000  
G07  25173838.210           0.000        1366.717          25.000                                                                  
G09  23286515.156   122371456.749       -2652.980          38.000    23286506.974    95354353.590       -2066.995          37.000  
G11  20635797.387   108441850.506         516.528          44.000    20635784.491    84500089.704         402.625          41.000  
G13  22620921.581   118873758.069        3984.639          41.000                                                                  
G17  24879583.502           0.000       -3260.419          26.000                                                                  
G19  22349885.963   117449424.517       -3348.356          35.000                                                                  
G20  20326541.102   106816693.558         152.952          45.000                                                                  
G25  24018421.942   126217668.165        -732.391          33.000    24018422.205    98351426.827        -570.619          31.000  
G29  24605066.131   129300506.210        3772.087          39.000    24605077.804   100753586.107        2939.001          28.000  
G30  24770910.241   130172124.247        2157.841          42.000    24770913.057   101432751.973        1681.181          35.000  
C07  35925919.683   187075683.553        -698.289          42.000    35925899.377   144658703.318        -539.860          40.000  
C08  36407080.032   189581221.455         -69.587          40.000    36407058.970   146596139.354         -54.221          42.000  
C10  35975131.352   187331939.338        -389.771          42.000    35975113.399   144856865.275        -301.391          40.000  
C13  37022704.924   192786942.816          64.162          41.000    37022693.380   149075040.085          49.865          39.000  
C19  24917860.683   129753838.682        3176.829          38.000                                                                  
C20  21694374.675   112968306.011        1278.688          49.000                                                                  
C27  24707666.155   128659281.186       -2419.475          41.000                                                                  
C29  22251532.377   115869570.001        2282.394          46.000                                                                  
C30  21422042.627   111550193.277        -547.047          47.000                                                                  
C32  22736399.278   118394389.913       -1854.039          46.000                                                                  
> 2025  4 11  9 27  9.4990000  0 22                     
G05  21474340.852   112848423.248        1928.670          42.000    21474329.915    87933795.777        1502.598          36.000  
G06  21547156.022   113231066.990        -945.420          42.000    21547146.820    88231960.316        -737.230          37.000  
G07  25173709.788           0.000        1367.345          25.000                                                                  
G09  23286767.481   122372783.262       -2652.780          36.000    23286759.412    95355387.250       -2067.908          37.000  
G11  20635748.315   108441592.332         516.290          44.000    20635735.294    84499888.555         401.941          41.000  
G13  22620542.442   118871766.035        3984.292          40.000                                                                  
G17  24879894.298           0.000       -3260.938          26.000                                                                  
G19  22350204.573   117451098.833       -3348.446          37.000                                                                  
G20  20326526.513   106816617.136         152.770          45.000                                                                  
G25  24018491.658   126218034.047        -731.432          33.000    24018491.873    98351711.968        -570.162          31.000  
G29  24604707.208   129298620.172        3772.150          39.000    24604720.229   100752116.456        2939.127          28.000  
G30  24770704.985   130171045.363        2157.836          42.000    24770707.704   101431911.287        1681.160          35.000  
C07  35925986.638   187076032.689        -698.233          42.000    35925966.347   144658973.323        -540.372          40.000  
C08  36407086.719   189581256.459         -69.922          40.000    36407065.688   146596166.414         -53.989          42.000  
C10  35975168.771   187332134.266        -390.218          42.000    35975150.736   144857015.995        -301.536          41.000  
C13  37022698.816   192786910.807          63.903          41.000    37022687.158   149075015.352          49.669          39.000  
C19  24917555.583   129752250.213        3176.396          39.000                                                                  
C20  21694251.856   112967666.745        1278.435          49.000                                                                  
C27  24707898.443   128660490.873       -2419.405          41.000                                                                  
C29  22251313.147   115868428.766        2282.657          46.000                                                                  
C30  21422095.218   111550466.794        -547.163          47.000                                                                  
C32  22736577.373   118395316.900       -1854.056          47.000                                                                  
> 2025  4 11  9 27  9.9990000  0 22                     
G05  21474157.468   112847459.249        1928.156          42.000    21474146.527    87933044.610        1502.502          37.000  
G06  21547246.085   113231539.854        -945.944          41.000    21547236.759    88232328.792        -737.239          38.000  
G07  25173580.330           0.000        1367.558          25.000                                                                  
G09  23287019.907   122374109.881       -2653.506          38.000    23287011.866    95356420.957       -2067.673          37.000  
G11  20635699.233   108441334.203         516.125          44.000    20635686.158    84499687.411         402.026          41.000  
G13  22620163.341   118869773.882        3983.822          40.000                                                                  
G17  24880204.199           0.000       -3261.277          26.000                                                                  
G19  22350523.186   117452773.146       -3348.824          37.000                                                                  
G20  20326511.969   106816540.775         152.636          45.000                                                                  
G25  24018561.255   126218400.106        -731.331          33.000    24018561.555    98351997.225        -570.889          31.000  
G29  24604348.308   129296734.194        3771.975          39.000    24604362.456   100750646.805        2939.208          28.000  
G30  24770499.689   130169966.483        2157.693          41.000    24770502.388   101431070.626        1681.034          35.000  
C07  35926053.670   187076381.862        -698.390          41.000    35926033.325   144659243.305        -540.041          41.000  
C08  36407093.420   189581291.456         -69.850          40.000    36407072.434   146596193.478         -53.899          42.000  
C10  35975206.275   187332329.227        -389.719          41.000    35975188.187   144857166.739        -301.645          41.000  
C13  37022692.599   192786878.767          63.878          41.000    37022681.041   149074990.581          49.573          39.000  
C19  24917250.500   129750661.801        3175.897          39.000                                                                  
C20  21694129.133   112967027.573        1278.181          48.000                                                                  
C27  24708130.727   128661700.622       -2419.349          43.000                                                                  
C29  22251094.037   115867287.601        2282.436          45.000                                                                  
C30  21422147.711   111550740.439        -547.456          47.000                                                                  
C32  22736755.400   118396243.970       -1854.320          46.000                                                                  
> 2025  4 11  9 27 10.4990000  0 22                     
G05  21473974.129   112846495.353        1926.828          44.000    21473963.096    87932293.525        1501.563          37.000  
G06  21547336.053   113232012.826        -946.551          42.000    21547326.772    88232697.331        -737.165          38.000  
G07  25173449.677           0.000        1367.814          25.000                                                                  
G09  23287272.310   122375436.605       -2653.748          38.000    23287264.271    95357454.802       -2068.228          37.000  
G11  20635650.170   108441076.185         515.247          45.000    20635637.074    84499486.371         401.361          41.000  
G13  22619784.210   118867781.799        3983.597          43.000                                                                  
G17  24880513.146           0.000       -3260.699          26.000                                                                  
G19  22350841.835   117454447.556       -3349.996          36.000                                                                  
G20  20326497.388   106816464.516         151.698          45.000                                                                  
G25  24018631.016   126218766.311        -733.418          33.000    24018631.173    98352282.567        -571.088          31.000  
G29  24603989.419   129294848.279        3771.546          39.000    24604003.911   100749177.250        2939.629          28.000  
G30  24770294.376   130168887.657        2157.001          40.000    24770297.115   101430230.026        1680.422          36.000  
C07  35926120.700   187076731.106        -699.245          40.000    35926100.432   144659513.379        -540.861          39.000  
C08  36407100.065   189581326.533         -70.932          41.000    36407079.066   146596220.575         -54.499          42.000  
C10  35975243.780   187332524.236        -390.294          41.000    35975225.610   144857317.543        -301.982          41.000  
C13  37022686.532   192786846.786          63.621          42.000    37022674.980   149074965.835          48.834          40.000  
C19  24916945.413   129749073.489        3175.739          31.000                                                                  
C20  21694006.472   112966388.602        1277.177          49.000                                                                  
C27  24708363.150   128662910.432       -2420.057          41.000                                                                  
C29  22250874.855   115866146.549        2281.507          46.000                                                                  
C30  21422200.370   111551014.187        -548.092          47.000                                                                  
C32  22736933.426   118397171.140       -1854.970          47.000                                                                  
> 2025  4 11  9 27 10.9990000  0 22                     
G05  21473790.794   112845532.003        1924.352          46.000    21473779.799    87931542.868        1499.785          39.000  
G06  21547426.124   113232486.287        -948.464          41.000    21547416.885    88233066.302        -739.614          35.000  
G07  25173318.315           0.000        1363.948          25.000                                                                  
G09  23287524.924   122376763.911       -2656.324          38.000    23287516.843    95358489.011       -2069.560          35.000  
G11  20635601.228   108440818.639         513.873          45.000    20635588.141    84499285.690         400.281          41.000  
G13  22619405.240   118865790.265        3981.446          44.000                                                                  
G17  24880822.550   130749609.478       -3262.151          25.000                                                                  
G19  22351160.575   117456122.446       -3350.290          38.000                                                                  
G20  20326483.043   106816388.745         150.019          46.000                                                                  
G25  24018700.855   126219133.073        -735.731          33.000    24018700.901    98352568.318        -572.609          31.000  
G29  24603630.649   129292962.800        3769.592          39.000    24603644.811   100747708.027        2938.076          28.000  
G30  24770089.090   130167809.258        2154.936          38.000    24770091.885   101429389.715        1679.818          34.000  
C07  35926187.880   187077080.814        -701.199          38.000    35926167.588   144659783.774        -541.926          37.000  
C08  36407106.837   189581362.001         -72.207          41.000    36407085.944   146596248.027         -56.209          42.000  
C10  35975281.325   187332719.777        -392.699          38.000    35975263.156   144857468.767        -303.669          39.000  
C13  37022680.413   192786815.235          62.276          45.000    37022668.992   149074941.442          47.585          41.000  
C19  24916640.677   129747485.751        3173.306          35.000                                                                  
C20  21693883.806   112965750.138        1275.573          47.000                                                                  
C27  24708595.549   128664120.766       -2421.735          41.000                                                                  
C29  22250655.788   115865005.965        2279.975          44.000                                                                  
C30  21422253.052   111551288.525        -550.079          47.000                                                                  
C32  22737111.645   118398098.826       -1856.710          46.000                                                                  
> 2025  4 11  9 27 11.4990000  0 22                     
G05  21473607.461   112844568.528        1925.973          37.000    21473596.444    87930792.042        1502.387          31.000  
G06  21547516.173   113232959.629        -946.526          40.000    21547506.890    88233435.116        -738.425          36.000  
G07  25173190.323   132286007.174        1367.486          25.000                                                                  
G09  23287777.391   122378091.054       -2654.546          38.000    23287769.353    95359523.172       -2068.204          37.000  
G11  20635552.155   108440560.951         515.454          44.000    20635539.066    84499084.885         401.660          37.000  
G13  22619026.257   118863798.473        3983.727          38.000                                                                  
G17  24881134.228   130751240.086       -3260.877          26.000                                                                  
G19  22351479.244   117457797.283       -3349.896          36.000                                                                  
G20  20326468.604   106816312.827         151.843          46.000                                                                  
G25  24018770.885   126219499.755        -734.503          40.000    24018770.656    98352854.020        -572.467          31.000  
G29  24603271.791   129291077.103        3771.584          35.000    24603282.300           0.000        2938.530          28.000  
G30  24769883.874   130166730.696        2156.799          38.000    24769886.561   101428549.246        1681.167          36.000  
C07  35926254.941   187077430.316        -698.859          38.000    35926234.762   144660054.053        -540.531          34.000  
C08  36407113.607   189581397.247         -70.527          41.000    36407092.706   146596275.256         -54.597          41.000  
C10  35975318.842   187332915.057        -390.825          37.000    35975300.582   144857619.759        -301.643          36.000  
C13  37022674.304   192786783.539          63.469          40.000    37022662.901   149074916.892          49.216          41.000  
C19  24916335.944   129745897.835        3173.558          31.000                                                                  
C20  21693761.107   112965111.592        1277.152          47.000                                                                  
C27  24708827.926   128665330.881       -2419.482          41.000                                                                  
C29  22250436.678   115863865.268        2281.176          42.000                                                                  
C30  21422305.581   111551562.714        -548.480          45.000                                                                  
C32  22737289.772   118399026.375       -1855.060          46.000                                                                  
> 2025  4 11  9 27 11.9990000  0 22                     
G05  21473424.136   112843604.937        1926.936          36.000    21473413.178    87930041.301        1501.213          31.000  
G06  21547606.277   113233432.935        -946.527          38.000    21547596.961    88233803.918        -737.579          34.000  
G07  25173061.480   132285323.944        1366.979          25.000                                                                  
G09  23288029.873   122379418.181       -2654.282          34.000    23288021.883    95360557.306       -2068.064          36.000  
G11  20635503.099   108440303.272         515.100          41.000    20635489.971    84498884.110         401.428          38.000  
G13  22618647.315   118861806.703        3983.687          40.000                                                                  
G17  24881445.014   130752870.648       -3260.426          26.000                                                                  
G19  22351797.977   117459472.089       -3349.290          33.000                                                                  
G20  20326454.110   106816236.873         151.742          42.000                                                                  
G25  24018840.860   126219866.484        -733.926          34.000    24018840.558    98353139.799        -571.240          31.000  
G29  24602913.005   129289191.617        3770.806          32.000    24602920.758   100744847.298        2938.393          27.000  
G30  24769678.569   130165651.954        2157.594          36.000    24769681.315   101427708.735        1680.736          34.000  
C07  35926322.043   187077779.835        -698.681          38.000    35926301.891   144660324.269        -540.399          40.000  
C08  36407120.223   189581432.460         -70.538          35.000    36407099.495   146596302.498         -54.635          40.000  
C10  35975356.300   187333110.369        -391.006          35.000    35975338.123   144857770.744        -302.129          39.000  
C13  37022668.195   192786751.737          63.497          37.000    37022656.766   149074892.323          48.793          39.000  
C19  24916031.144   129744309.725        3176.076          31.000                                                                  
C20  21693638.571   112964473.127        1277.118          44.000                                                                  
C27  24709060.363   128666541.061       -2419.683          38.000                                                                  
C29  22250217.649   115862724.642        2281.392          37.000                                                                  
C30  21422358.269   111551836.909        -548.073          42.000                                                                  
C32  22737468.001   118399953.924       -1854.952          42.000                                                                  
> 2025  4 11  9 27 12.4990000  0 22                     
G05  21473240.858   112842641.553        1926.077          39.000    21473229.832    87929290.557        1500.897          32.000  
G06  21547696.335   113233906.231        -947.169          41.000    21547687.020    88234172.723        -737.476          38.000  
G07  25172932.086   132284640.551        1366.721          25.000                                                                  
G09  23288282.361   122380745.423       -2654.736          35.000    23288274.424    95361591.511       -2068.449          37.000  
G11  20635454.036   108440045.566         515.497          45.000    20635440.911    84498683.292         401.459          40.000  
G13  22618268.306   118859814.884        3983.464          42.000                                                                  
G17  24881755.393   130754501.164       -3260.626          27.000                                                                  
G19  22352116.630   117461146.870       -3350.213          35.000                                                                  
G20  20326439.644   106816160.985         151.499          43.000                                                                  
G25  24018910.763   126220233.229        -733.219          35.000    24018910.436    98353425.629        -571.901          32.000  
G29  24602554.192   129287305.802        3770.723          36.000    24602560.701   100743377.934        2938.910          27.000  
G30  24769473.202   130164573.264        2157.418          39.000    24769476.043   101426868.184        1681.648          35.000  
C07  35926389.137   187078129.359        -699.242          41.000    35926369.027   144660594.535        -540.824          40.000  
C08  36407127.046   189581467.606         -70.418          37.000    36407106.390   146596329.675         -54.523          41.000  
C10  35975393.772   187333305.686        -391.212          39.000    35975375.606   144857921.746        -302.036          40.000  
C13  37022662.129   192786719.960          63.018          40.000    37022650.698   149074867.728          49.117          40.000  
C19  24915726.206   129742721.800        3175.657          33.000                                                                  
C20  21693515.998   112963834.739        1276.391          47.000                                                                  
C27  24709292.733   128667751.217       -2420.388          42.000                                                                  
C29  22249998.637   115861583.998        2281.017          40.000                                                                  
C30  21422410.861   111552111.252        -548.792          46.000                                                                  
C32  22737646.081   118400881.498       -1855.479          47.000                                                                  
> 2025  4 11  9 27 12.9990000  0 22                     
G05  21473057.625   112841678.458        1923.210          41.000    21473046.624    87928540.094        1498.983          33.000  
G06  21547786.501   113234379.972        -950.038          42.000    21547777.149    88234541.894        -740.954          38.000  
G07  25172801.136   132283957.138        1364.661          25.000                                                                  
G09  23288534.837   122382073.036       -2657.825          38.000    23288527.116    95362626.075       -2071.644          38.000  
G11  20635405.055   108439788.264         511.597          44.000    20635391.943    84498482.779         398.871          41.000  
G13  22617889.401   118857823.454        3980.130          42.000                                                                  
G17  24882066.838   130756131.442       -3262.310          27.000                                                                  
G19  22352435.385   117462822.067       -3353.305          38.000                                                                  
G20  20326425.287   106816085.473         148.513          43.000                                                                  
G25  24018980.881   126220600.453        -737.562          38.000    24018980.384    98353711.747        -574.821          32.000  
G29  24602195.481   129285420.512        3768.077          41.000    24602200.319   100741908.844        2937.055          27.000  
G30  24769267.970   130163494.896        2154.109          40.000    24769270.860   101426027.928        1678.706          36.000  
C07  35926456.338   187078479.225        -702.226          44.000    35926436.211   144660865.070        -543.386          41.000  
C08  36407133.981   189581503.171         -73.948          43.000    36407113.157   146596357.168         -57.082          44.000  
C10  35975431.407   187333501.349        -394.032          39.000    35975413.170   144858073.081        -305.084          41.000  
C13  37022656.033   192786688.467          60.573          40.000    37022644.754   149074843.421          46.760          40.000  
C19  24915421.279   129741134.248        3172.682          36.000                                                                  
C20  21693393.489   112963196.801        1273.118          49.000                                                                  
C27  24709525.200   128668961.770       -2423.824          44.000                                                                  
C29  22249779.571   115860443.508        2277.682          42.000                                                                  
C30  21422463.655   111552385.993        -552.228          48.000                                                                  
C32  22737824.418   118401809.536       -1858.972          47.000                                                                  
> 2025  4 11  9 27 13.4990000  0 22                     
G05  21472874.558   112840716.098        1922.422          41.000    21472863.481    87927790.228        1497.606          34.000  
G06  21547876.766   113234854.376        -950.421          45.000    21547867.438    88234911.513        -740.860          39.000  
G07  25172670.643           0.000        1363.305          26.000                                                                  
G09  23288787.616   122383401.420       -2658.008          38.000    23288779.921    95363661.136       -2071.298          38.000  
G11  20635356.238   108439531.662         511.438          45.000    20635343.087    84498282.815         398.688          40.000  
G13  22617510.640   118855832.703        3979.875          46.000                                                                  
G17  24882376.898   130757762.926       -3262.733          27.000                                                                  
G19  22352754.372   117464497.977       -3353.349          40.000                                                                  
G20  20326411.050   106816010.657         147.666          46.000                                                                  
G25  24019051.093   126220968.437        -738.119          41.000    24019050.493    98353998.471        -575.565          31.000  
G29  24601836.943   129283535.852        3767.202          42.000    24601841.178   100740440.337        2936.569          28.000  
G30  24769062.811   130162417.135        2154.024          42.000    24769065.815   101425188.156        1678.410          39.000  
C07  35926523.691   187078829.718        -702.892          46.000    35926503.582   144661136.115        -543.682          42.000  
C08  36407140.856   189581539.307         -74.528          45.000    36407120.101   146596385.112         -57.609          45.000  
C10  35975469.016   187333697.680        -394.940          40.000    35975450.859   144858224.893        -305.184          41.000  
C13  37022650.251   192786657.609          59.644          41.000    37022638.820   149074819.581          46.172          38.000  
C19  24915116.508   129739547.296        3171.993          38.000                                                                  
C20  21693270.936   112962559.568        1272.511          50.000                                                                  
C27  24709757.823   128670172.953       -2424.107          45.000                                                                  
C29  22249560.742   115859303.828        2277.247          43.000                                                                  
C30  21422516.418   111552661.439        -552.701          50.000                                                                  
C32  22738002.703   118402738.199       -1859.057          49.000                                                                  
> 2025  4 11  9 27 13.9990000  0 22                     
G05  21472691.359   112839753.555        1925.404          43.000    21472680.303    87927040.174        1500.646          35.000  
G06  21547966.968   113235328.606        -947.851          43.000    21547957.668    88235281.037        -738.685          39.000  
G07  25172541.891           0.000        1364.637          26.000                                                                  
G09  23289040.303   122384729.638       -2656.123          37.000    23289032.638    95364696.071       -2069.575          38.000  
G11  20635307.341   108439274.861         514.166          47.000    20635294.185    84498082.713         400.531          40.000  
G13  22617131.764   118853841.703        3982.510          44.000                                                                  
G17  24882687.700   130759394.394       -3263.027          27.000                                                                  
G19  22353073.253   117466173.679       -3351.085          39.000                                                                  
G20  20326396.768   106815935.641         150.679          45.000                                                                  
G25  24019121.189   126221336.229        -735.116          41.000    24019120.551    98354285.172        -574.231          30.000  
G29  24601478.260   129281650.934        3770.247          42.000    24601482.741   100738971.574        2937.216          28.000  
G30  24768857.666   130161339.161        2156.693          42.000    24768860.642   101424348.119        1680.502          38.000  
C07  35926590.982   187079179.985        -700.191          45.000    35926570.752   144661406.938        -541.382          42.000  
C08  36407147.866   189581575.180         -71.324          44.000    36407127.026   146596412.850         -55.143          44.000  
C10  35975506.550   187333893.747        -391.877          40.000    35975488.488   144858376.521        -303.160          41.000  
C13  37022644.289   192786626.509          62.911          40.000    37022632.731   149074795.516          48.309          38.000  
C19  24914811.692   129737960.213        3174.869          39.000                                                                  
C20  21693148.546   112961922.212        1275.195          50.000                                                                  
C27  24709990.477   128671383.973       -2421.342          45.000                                                                  
C29  22249341.792   115858164.000        2280.177          39.000                                                                  
C30  21422569.320   111552936.772        -550.128          49.000                                                                  
C32  22738181.022   118403666.714       -1856.555          49.000                                                                  
> 2025  4 11  9 27 14.4990000  0 22                     
G05  21472508.210   112838790.740        1925.198          41.000    21472497.130    87926289.947        1499.729          36.000  
G06  21548057.135   113235802.486        -947.837          42.000    21548047.879    88235650.329        -739.026          40.000  
G07  25172412.737           0.000        1365.052          25.000                                                                  
G09  23289292.940   122386057.541       -2655.798          37.000    23289285.285    95365730.811       -2069.793          39.000  
G11  20635258.506   108439017.764         514.117          46.000    20635245.194    84497882.389         400.610          41.000  
G13  22616752.766   118851850.402        3982.469          44.000                                                                  
G17  24882997.654   130761025.349       -3262.643          27.000                                                                  
G19  22353392.074   117467849.087       -3350.601          39.000                                                                  
G20  20326382.452   106815860.330         150.601          45.000                                                                  
G25  24019191.307   126221703.806        -735.123          41.000    24019190.439    98354571.483        -572.540          29.000  
G29  24601119.492   129279765.732        3770.506          41.000    24601126.666   100737502.592        2938.035          29.000  
G30  24768652.469   130160260.790        2156.710          41.000    24768655.387   101423507.869        1680.016          39.000  
C07  35926658.122   187079529.946        -700.146          45.000    35926637.963   144661677.545        -541.335          42.000  
C08  36407154.648   189581610.729         -71.324          44.000    36407133.667   146596440.344         -55.020          44.000  
C10  35975544.130   187334089.509        -391.154          40.000    35975525.997   144858527.904        -302.910          42.000  
C13  37022638.178   192786595.055          62.888          38.000    37022626.786   149074771.189          48.775          39.000  
C19  24914506.812   129736372.793        3174.749          37.000                                                                  
C20  21693026.115   112961284.628        1274.948          49.000                                                                  
C27  24710222.990   128672594.689       -2421.649          44.000                                                                  
C29  22249122.838   115857023.895        2279.368          39.000                                                                  
C30  21422622.133   111553211.850        -550.284          49.000                                                                  
C32  22738359.306   118404594.969       -1856.723          48.000                                                                  
> 2025  4 11  9 27 14.9990000  0 22                     
G05  21472325.062   112837828.058        1924.273          38.000    21472313.902    87925539.825        1499.936          36.000  
G06  21548147.323   113236276.457        -948.206          43.000    21548138.136    88236019.696        -739.205          43.000  
G07  25172282.486   132281226.968        1365.015          25.000                                                                  
G09  23289545.588   122387385.585       -2656.191          38.000    23289538.002    95366765.648       -2069.464          39.000  
G11  20635209.604   108438760.737         513.678          47.000    20635196.300    84497682.099         400.244          44.000  
G13  22616373.846   118849859.170        3982.485          44.000                                                                  
G17  24883303.075   130762656.189       -3261.566          29.000                                                                  
G19  22353710.927   117469524.590       -3351.455          39.000                                                                  
G20  20326368.087   106815785.126         149.875          45.000                                                                  
G25  24019261.411   126222071.546        -736.092          41.000    24019260.442    98354858.075        -573.172          29.000  
G29  24600760.807   129277880.611        3769.731          41.000    24600769.514   100736033.723        2936.788          30.000  
G30  24768447.263   130159182.480        2156.084          39.000    24768450.129   101422667.619        1680.318          40.000  
C07  35926725.347   187079879.951        -700.750          42.000    35926705.184   144661948.237        -541.792          41.000  
